City ID,Date,Country,City,Lat,Lng,Max Temp,Humidity,Wind Speed,Cloud Cover
0,2020-04-14 23:22:44,AO,Benguela,-12.58,13.41,76.96,83,1.88,40
1,2020-04-14 23:24:31,CL,Punta Arenas,-53.15,-70.92,50.0,81,6.93,75
2,2020-04-14 23:25:04,AU,Carnarvon,-24.87,113.63,71.6,73,17.22,45
3,2020-04-14 23:23:31,JP,Hasaki,35.73,140.83,52.0,43,2.24,20
4,2020-04-14 23:26:26,US,Nantucket,41.28,-70.1,48.2,81,8.05,1
5,2020-04-14 23:20:12,RE,Saint-Philippe,-21.36,55.77,75.2,83,12.75,2
6,2020-04-14 23:24:54,NZ,Mataura,-46.19,168.86,46.99,95,7.0,100
7,2020-04-14 23:20:23,US,Lompoc,34.64,-120.46,73.99,72,11.41,1
8,2020-04-14 23:24:47,RU,Nikolskoye,59.7,30.79,34.0,98,4.47,75
9,2020-04-14 23:24:45,PF,Rikitea,-23.12,-134.97,76.41,67,8.79,59
10,2020-04-14 23:25:29,RU,Khatanga,71.97,102.5,-2.36,90,4.23,85
11,2020-04-14 23:25:48,CL,Constitución,-35.33,-72.42,52.93,73,8.5,14
12,2020-04-14 23:32:33,ID,Manokwari,-0.87,134.08,84.7,66,1.99,88
13,2020-04-14 23:25:44,ID,Biak,-0.91,122.88,81.5,68,2.04,92
14,2020-04-14 23:22:28,RU,Ostrovnoy,68.05,39.51,35.56,90,15.43,94
15,2020-04-14 23:26:02,AE,Abu Dhabi,24.47,54.37,79.0,65,5.82,34
16,2020-04-14 23:26:01,AU,Yulara,-25.24,130.99,68.0,22,5.82,5
17,2020-04-14 23:25:07,CA,Yellowknife,62.46,-114.35,30.99,79,2.24,90
18,2020-04-14 23:24:50,US,Hilo,19.73,-155.09,82.4,65,11.41,40
19,2020-04-14 23:19:49,TO,Vaini,-21.2,-175.2,80.6,78,10.29,40
20,2020-04-14 23:32:33,RU,Blagoyevo,63.37,47.92,33.62,89,11.03,45
21,2020-04-14 23:32:34,SA,Sayhāt,26.49,50.04,75.2,60,6.93,48
22,2020-04-14 23:32:34,KZ,South Kazakhstan Region,43.0,68.0,44.89,51,4.54,29
23,2020-04-14 23:25:04,UZ,Yangi Marg`ilon,40.43,71.72,53.6,87,2.24,100
24,2020-04-14 23:24:50,NZ,Bluff,-46.6,168.33,46.99,95,7.0,100
25,2020-04-14 23:24:25,US,Bethel,41.37,-73.41,54.0,32,4.7,75
26,2020-04-14 23:25:53,VE,San Cristobal,7.77,-72.22,86.0,58,10.29,40
27,2020-04-14 23:30:59,AR,Morón,-34.65,-58.62,62.6,71,5.82,0
28,2020-04-14 23:25:38,ZA,Port Elizabeth,-33.92,25.57,60.8,100,3.36,75
29,2020-04-14 23:32:34,AU,Mildura,-34.2,142.15,69.01,45,9.17,96
30,2020-04-14 23:25:03,GL,Tasiilaq,65.61,-37.64,32.0,90,16.11,2
31,2020-04-14 23:32:34,IN,Sangamner,19.57,74.22,78.57,30,6.71,11
32,2020-04-14 23:32:34,CN,Weihe,33.0,105.32,51.58,54,1.16,32
33,2020-04-14 23:32:34,RU,Yar-Sale,66.83,70.83,30.87,99,8.34,100
34,2020-04-14 23:22:28,US,Broome,42.25,-75.83,46.99,28,4.7,90
35,2020-04-14 23:20:58,AU,New Norfolk,-42.78,147.06,59.0,87,1.12,75
36,2020-04-14 23:32:34,VC,Chateaubelair,13.28,-61.25,82.4,78,10.29,40
37,2020-04-14 23:32:34,RU,Ola,59.58,151.28,24.84,91,1.9,100
38,2020-04-14 23:23:46,US,Saint George,37.1,-113.58,63.0,12,5.82,1
39,2020-04-14 23:28:42,AU,Port Macquarie,-31.43,152.92,73.0,82,3.4,5
40,2020-04-14 23:32:34,IN,Mānsa,29.98,75.38,78.93,16,3.83,84
41,2020-04-14 23:32:34,JP,Gōtsuchō,35.0,132.22,51.8,50,6.93,100
42,2020-04-14 23:29:21,RO,Asău,46.43,26.4,36.0,80,6.93,100
43,2020-04-14 23:24:44,AU,Busselton,-33.65,115.33,59.0,67,15.93,46
44,2020-04-14 23:24:55,BR,Arraial do Cabo,-22.97,-42.03,75.2,88,16.11,20
45,2020-04-14 23:25:00,BR,Castro,-24.79,-50.01,57.65,67,3.65,17
46,2020-04-14 23:24:45,AU,Hobart,-42.88,147.33,59.0,87,2.24,75
47,2020-04-14 23:32:35,BR,Vilhena,-12.74,-60.15,71.6,94,4.7,100
48,2020-04-14 23:21:58,CL,Ancud,-41.87,-73.82,51.8,100,10.29,75
49,2020-04-14 23:25:26,US,Barrow,71.29,-156.79,12.2,85,11.41,90
50,2020-04-14 23:32:35,RU,Seredeyskiy,54.05,35.23,35.85,74,5.12,100
51,2020-04-14 23:22:35,PT,Vila Franca do Campo,37.72,-25.43,55.4,87,3.36,75
52,2020-04-14 23:32:35,RE,Saint-Pierre,-21.34,55.48,75.2,83,12.75,5
53,2020-04-14 23:32:35,CN,Suicheng,33.9,117.93,58.14,60,3.15,38
54,2020-04-14 23:22:32,IS,Husavik,66.04,-17.34,41.0,41,19.46,56
55,2020-04-14 23:20:29,RU,Tiksi,71.69,128.87,7.16,94,14.5,100
56,2020-04-14 23:24:53,IS,Grindavik,63.84,-22.43,39.2,64,18.34,75
57,2020-04-14 23:25:33,CN,Zhuhai,22.28,113.57,70.0,88,1.12,79
58,2020-04-14 23:24:51,CV,São Filipe,14.9,-24.5,72.72,75,15.01,65
59,2020-04-14 23:32:35,US,Fallon,39.47,-118.78,62.6,9,3.36,20
60,2020-04-14 23:21:56,GF,Cayenne,4.93,-52.33,78.8,78,1.12,40
61,2020-04-14 23:32:35,NO,Tromsø,69.65,18.96,33.8,59,13.87,75
62,2020-04-14 23:25:02,US,Saint Paul Harbor,57.79,-152.41,42.8,93,6.93,90
63,2020-04-14 23:32:35,CD,Kindu,-2.95,25.95,72.01,77,2.13,100
64,2020-04-14 23:24:39,RU,Talnakh,69.49,88.4,-0.4,77,20.13,38
65,2020-04-14 23:32:35,GR,Schisma Eloundas,35.27,25.72,64.99,42,31.09,47
66,2020-04-14 23:29:46,US,Griffith,41.53,-87.42,39.99,38,13.87,75
67,2020-04-14 23:21:00,RU,Zhigansk,66.77,123.37,12.4,91,16.17,1
68,2020-04-14 23:29:28,BR,Fonte Boa,-2.5,-66.27,75.99,84,3.09,78
69,2020-04-14 23:32:35,RU,Batagay-Alyta,67.8,130.41,20.28,86,9.66,58
70,2020-04-14 23:32:36,BR,Nova Petrópolis,-29.38,-51.11,64.99,63,16.11,75
71,2020-04-14 23:21:20,US,Albany,42.6,-73.97,48.99,28,11.41,75
72,2020-04-14 23:25:36,AU,Kununurra,-15.77,128.73,78.8,69,2.26,62
73,2020-04-14 23:20:06,EC,Puerto Ayora,-0.74,-90.35,84.2,74,4.7,40
74,2020-04-14 23:30:01,PG,Namatanai,-3.67,152.43,82.44,73,3.6,100
75,2020-04-14 23:20:58,CK,Avarua,-21.21,-159.78,82.4,61,5.82,50
76,2020-04-14 23:26:06,RU,Novoanninskiy,50.53,42.67,42.01,57,14.03,71
77,2020-04-14 23:32:36,US,Graham,47.05,-122.29,69.01,42,5.82,1
78,2020-04-14 23:32:36,US,Tuscaloosa,33.21,-87.57,61.0,41,11.41,1
79,2020-04-14 23:24:48,CL,Lebu,-37.62,-73.65,55.35,72,2.13,73
80,2020-04-14 23:25:03,ZA,Hermanus,-34.42,19.23,57.99,93,4.52,1
81,2020-04-14 23:25:23,RU,Verkhnyaya Inta,65.98,60.31,27.46,94,6.38,76
82,2020-04-14 23:29:30,BR,Itarema,-2.92,-39.92,76.57,79,1.21,94
83,2020-04-14 23:24:50,RU,Dikson,73.51,80.55,4.68,93,9.73,21
84,2020-04-14 23:32:36,BI,Rumonge,-3.97,29.44,71.56,59,2.26,100
85,2020-04-14 23:24:53,UY,Chui,-33.7,-53.46,58.84,83,24.34,100
86,2020-04-14 23:25:27,MX,Progreso,21.28,-89.67,93.2,52,13.87,75
87,2020-04-14 23:24:42,ID,Meulaboh,4.14,96.13,78.35,82,4.38,82
88,2020-04-14 23:32:36,US,Marshall,34.38,-86.33,55.99,66,10.29,40
89,2020-04-14 23:25:38,MV,Hithadhoo,-0.6,73.08,84.7,65,2.86,41
90,2020-04-14 23:30:00,MG,Ambilobe,-13.2,49.05,73.24,81,5.75,52
91,2020-04-14 23:24:48,AR,Ushuaia,-54.8,-68.3,48.2,66,5.55,75
92,2020-04-14 23:32:10,RU,Ust-Nera,64.57,143.2,16.56,85,5.01,73
93,2020-04-14 23:25:00,PH,Dingle,11.0,122.67,82.18,74,8.25,5
94,2020-04-14 23:32:37,RU,Iskateley,67.68,53.15,32.85,95,12.33,96
95,2020-04-14 23:25:04,PF,Faanui,-16.48,-151.75,82.99,68,6.64,28
96,2020-04-14 23:25:01,NO,Sørland,67.67,12.69,39.18,72,18.39,72
97,2020-04-14 23:29:36,RU,Belaya Gora,68.53,146.42,6.55,89,6.53,10
98,2020-04-14 23:32:37,ZM,Chingola,-12.53,27.88,61.32,66,2.42,77
99,2020-04-14 23:25:37,ZA,Kruisfontein,-34.0,24.73,55.24,83,5.06,6
100,2020-04-14 23:19:52,US,Kapaa,22.08,-159.32,80.6,78,12.75,40
101,2020-04-14 23:32:37,LR,Harper,4.38,-7.72,81.0,81,4.47,89
102,2020-04-14 23:30:14,NC,Vao,-22.67,167.48,74.79,74,13.91,93
103,2020-04-14 23:32:37,AU,Murray Bridge,-35.12,139.27,75.0,28,12.06,93
104,2020-04-14 23:32:37,US,Bossier City,32.52,-93.73,60.01,47,13.87,75
105,2020-04-14 23:29:32,ID,Bengkulu,-3.8,102.27,78.4,83,3.85,93
106,2020-04-14 23:32:37,AR,San Vicente,-26.62,-54.13,50.45,68,4.09,0
107,2020-04-14 23:32:37,BR,Senador Pompeu,-5.59,-39.37,73.4,85,3.4,97
108,2020-04-14 23:29:50,MX,Coahuayana Viejo,18.73,-103.68,84.2,30,11.41,40
109,2020-04-14 23:24:45,TC,Cockburn Town,21.46,-71.14,78.71,82,18.59,12
110,2020-04-14 23:25:04,ZA,Bredasdorp,-34.53,20.04,52.0,93,4.7,0
111,2020-04-14 23:25:40,MU,Mahébourg,-20.41,57.7,77.0,88,19.46,75
112,2020-04-14 23:22:05,ZA,Cape Town,-33.93,18.42,61.0,87,11.41,20
113,2020-04-14 23:32:37,RU,Khasan,42.43,130.64,49.69,47,10.58,5
114,2020-04-14 23:32:37,BY,Lyuban',52.8,28.0,32.59,86,11.34,28
115,2020-04-14 23:32:37,PY,San Lorenzo,-25.33,-57.53,62.6,63,5.37,0
116,2020-04-14 23:25:34,CN,Xining,36.62,101.77,50.81,17,1.59,27
117,2020-04-14 23:32:38,PR,Piedra Gorda,18.43,-66.89,82.0,100,13.58,18
118,2020-04-14 23:25:14,US,Kahului,20.89,-156.47,78.8,74,3.36,40
119,2020-04-14 23:25:33,RU,Kuril'sk,45.23,147.88,30.65,94,14.65,100
120,2020-04-14 23:32:38,MY,Kota Belud,6.35,116.43,79.0,83,4.7,20
121,2020-04-14 23:23:54,NO,Vardø,70.37,31.11,36.72,90,14.67,98
122,2020-04-14 23:19:58,ZA,Port Alfred,-33.59,26.89,62.01,96,1.99,79
123,2020-04-14 23:32:38,RU,Aksha,50.28,113.29,42.8,41,16.02,100
124,2020-04-14 23:25:06,CA,Tuktoyaktuk,69.45,-133.04,24.8,92,13.87,90
125,2020-04-14 23:32:38,DE,Konstanz,47.66,9.18,39.2,51,6.93,0
126,2020-04-14 23:32:38,RU,Oktyabr'skoye,43.06,44.74,33.8,86,4.47,40
127,2020-04-14 23:25:44,NA,Lüderitz,-26.65,15.16,60.8,67,11.41,86
128,2020-04-14 23:32:38,US,Rapid Valley,44.06,-103.15,37.0,64,4.7,90
129,2020-04-14 23:24:47,BR,Cidreira,-30.18,-50.21,63.23,71,20.36,20
130,2020-04-14 23:29:29,RU,Evensk,61.95,159.23,21.31,89,5.39,16
131,2020-04-14 23:32:38,IN,Shāmgarh,24.18,75.63,81.84,24,6.06,82
132,2020-04-14 23:29:43,KM,Mitsamiouli,-11.38,43.28,83.34,73,6.62,56
133,2020-04-14 23:21:47,GL,Qaanaaq,77.48,-69.36,18.5,94,3.22,100
134,2020-04-14 23:21:23,US,Portland,45.52,-122.68,70.0,24,5.82,20
135,2020-04-14 23:32:38,TZ,Masuguru,-11.37,38.42,71.37,91,1.45,5
136,2020-04-14 23:21:46,US,Kenai,60.55,-151.26,46.4,65,9.17,90
137,2020-04-14 23:25:49,VG,Road Town,18.42,-64.62,80.6,69,6.93,1
138,2020-04-14 23:21:04,CA,La Ronge,55.1,-105.28,30.2,42,11.41,40
139,2020-04-14 23:32:38,CO,Juradó,7.11,-77.76,77.41,81,2.95,44
140,2020-04-14 23:19:52,PF,Atuona,-9.8,-139.03,82.47,66,4.83,30
141,2020-04-14 23:21:18,MU,Souillac,-20.52,57.52,77.0,88,19.46,75
142,2020-04-14 23:26:14,GA,Omboué,-1.57,9.26,80.19,86,5.61,100
143,2020-04-14 23:28:17,RU,Okha,53.57,142.95,29.17,94,12.66,100
144,2020-04-14 23:25:19,GL,Upernavik,72.79,-56.15,21.22,94,4.07,100
145,2020-04-14 23:22:10,SA,Faya,18.39,42.45,64.4,93,9.17,40
146,2020-04-14 23:24:44,CA,Torbay,47.67,-52.73,46.0,93,16.11,90
147,2020-04-14 23:26:42,CA,Bonavista,48.65,-53.11,42.01,81,1.01,90
148,2020-04-14 23:25:27,MX,Guerrero Negro,27.98,-114.06,66.38,63,16.78,67
149,2020-04-14 23:21:38,BR,Vila Velha,-20.33,-40.29,75.2,83,4.7,29
150,2020-04-14 23:32:39,CU,Aguada de Pasajeros,22.39,-80.85,82.4,83,11.41,0
151,2020-04-14 23:29:33,AU,Moree,-29.47,149.85,69.8,64,12.75,2
152,2020-04-14 23:32:39,NG,Warri,5.52,5.75,79.92,88,4.16,20
153,2020-04-14 23:32:39,RU,Nerchinskiy Zavod,51.31,119.61,42.17,44,4.94,36
154,2020-04-14 23:32:39,GD,Gouyave,12.16,-61.73,80.6,78,5.82,20
155,2020-04-14 23:28:19,US,Yarmouth,41.71,-70.23,51.01,57,11.41,1
156,2020-04-14 23:24:50,FO,Klaksvík,62.23,-6.59,44.6,100,19.46,100
157,2020-04-14 23:32:39,CA,Shaunavon,49.65,-108.42,34.02,59,4.12,97
158,2020-04-14 23:27:41,US,Eureka,40.8,-124.16,71.6,45,16.11,1
159,2020-04-14 23:20:58,KI,Butaritari,3.07,172.79,83.66,80,17.02,66
160,2020-04-14 23:20:07,BR,São João da Barra,-21.64,-41.05,75.04,82,15.9,4
161,2020-04-14 23:25:08,AU,Mount Gambier,-37.83,140.77,64.4,39,14.99,99
162,2020-04-14 23:21:11,NZ,Te Anau,-45.42,167.72,48.34,57,1.57,93
163,2020-04-14 23:32:39,TD,Adré,13.47,22.2,71.96,14,16.91,21
164,2020-04-14 23:29:45,RU,Deputatsky,69.3,139.9,-1.86,86,4.94,99
165,2020-04-14 23:32:39,PE,Chilca,-12.52,-76.74,73.4,73,9.17,28
166,2020-04-14 23:29:33,GB,Winchester,51.07,-1.32,42.01,80,3.36,6
167,2020-04-14 23:21:06,NC,Poum,-20.23,164.02,79.0,78,12.66,86
168,2020-04-14 23:32:40,SO,Berbera,10.44,45.01,83.03,78,6.38,85
169,2020-04-14 23:20:46,AU,Port Hedland,-20.32,118.57,77.0,88,3.36,14
170,2020-04-14 23:29:37,IS,Dalvik,65.97,-18.53,41.0,41,19.46,93
171,2020-04-14 23:24:54,MY,George Town,5.41,100.34,80.6,94,3.36,20
172,2020-04-14 23:32:40,MX,Miraflores,19.22,-98.81,95.0,20,13.87,5
173,2020-04-14 23:24:51,PT,Ribeira Grande,38.52,-28.7,51.8,66,17.22,75
174,2020-04-14 23:25:02,PG,Kavieng,-2.57,150.8,82.54,76,6.04,69
175,2020-04-14 23:25:05,CA,Port Hardy,50.7,-127.42,60.8,55,16.11,40
176,2020-04-14 23:24:53,PT,Lagoa,39.05,-27.98,54.3,71,14.54,100
177,2020-04-14 23:25:12,CA,Thompson,55.74,-97.86,24.8,35,10.29,20
178,2020-04-14 23:32:40,VN,Bac Lieu,9.29,105.72,82.17,75,15.19,43
179,2020-04-14 23:32:12,US,Baton Rouge,30.45,-91.15,73.4,46,12.75,1
180,2020-04-14 23:27:27,CA,Moose Factory,51.26,-80.61,17.6,61,19.46,90
181,2020-04-14 23:27:57,SO,Mogadishu,2.04,45.34,83.64,77,11.1,87
182,2020-04-14 23:21:00,RU,Severo-Kuril'sk,50.68,156.12,31.14,93,13.85,100
183,2020-04-14 23:21:26,GL,Ilulissat,69.22,-51.1,21.6,97,3.29,100
184,2020-04-14 23:25:05,AU,Esperance,-33.87,121.9,59.0,82,14.99,85
185,2020-04-14 23:20:46,RU,Chokurdakh,70.63,147.92,-4.31,90,5.53,0
186,2020-04-14 23:32:40,LY,Awjilah,29.11,21.29,73.74,20,13.13,13
187,2020-04-14 23:32:41,CA,Assiniboia,49.63,-105.98,34.48,47,8.75,3
188,2020-04-14 23:32:41,PE,Sicuani,-14.27,-71.23,47.73,19,6.31,39
189,2020-04-14 23:25:23,GA,Gamba,-2.65,10.0,79.95,87,4.76,100
190,2020-04-14 23:32:41,BR,Mocajuba,-2.58,-49.51,70.57,97,1.07,100
191,2020-04-14 23:21:47,IS,Vestmannaeyjar,63.44,-20.27,40.37,77,17.38,100
192,2020-04-14 23:32:41,JP,Nemuro,43.32,145.57,31.77,92,14.0,91
193,2020-04-14 23:25:29,US,Jamestown,42.1,-79.24,41.0,75,11.41,90
194,2020-04-14 23:25:12,PT,Ponta do Sol,32.67,-17.1,60.8,55,8.05,20
195,2020-04-14 23:25:30,OM,Salalah,17.02,54.09,80.6,74,6.93,40
196,2020-04-14 23:32:41,CN,Dongying,37.46,118.49,64.76,38,7.05,3
197,2020-04-14 23:20:07,RU,Cherskiy,68.75,161.3,8.46,95,10.0,89
198,2020-04-14 23:24:54,ZA,East London,-33.02,27.91,65.16,70,6.02,100
199,2020-04-14 23:30:21,DE,Stralsund,54.31,13.08,43.0,78,16.11,75
200,2020-04-14 23:32:41,KZ,Zhangaözen,43.3,52.8,46.22,47,12.1,0
201,2020-04-14 23:26:10,PK,Mitha Tiwana,32.25,72.11,73.31,55,5.61,12
202,2020-04-14 23:32:41,JP,Nishihara,26.18,127.76,66.2,68,3.36,40
203,2020-04-14 23:32:41,RU,Surgut,61.25,73.42,39.2,60,11.18,100
204,2020-04-14 23:32:41,RU,Novochernorechenskiy,56.27,91.08,41.54,85,1.9,74
205,2020-04-14 23:25:13,CL,Taltal,-25.4,-70.48,60.71,77,2.33,43
206,2020-04-14 23:22:33,BR,Boa Vista,2.82,-60.67,89.6,46,10.29,69
207,2020-04-14 23:29:39,GW,Bubaque,11.28,-15.83,79.03,68,13.4,53
208,2020-04-14 23:25:01,BR,Touros,-5.2,-35.46,82.4,78,6.93,75
209,2020-04-14 23:32:41,RU,Mel'nikovo,56.56,84.08,37.0,79,3.51,4
210,2020-04-14 23:32:42,BR,Vacaria,-28.51,-50.93,55.0,64,8.12,41
211,2020-04-14 23:32:42,IT,Province of Mantua,45.17,10.78,50.0,59,6.93,27
212,2020-04-14 23:20:59,AU,Codrington,-38.27,141.97,66.81,42,17.34,100
213,2020-04-14 23:32:42,RU,Vygonichi,53.1,34.07,35.87,74,7.36,100
214,2020-04-14 23:20:45,TL,Airai,-8.93,125.41,67.3,61,3.78,65
215,2020-04-14 23:24:55,CA,Whitecourt,54.15,-115.69,42.8,71,14.99,75
216,2020-04-14 23:32:42,TZ,Micheweni,-4.97,39.83,83.14,81,15.86,97
217,2020-04-14 23:26:00,GF,Sinnamary,5.38,-52.95,78.31,77,9.42,71
218,2020-04-14 23:25:30,NE,Bilma,18.69,12.92,81.46,13,7.2,42
219,2020-04-14 23:30:09,CN,Dali,25.7,100.18,53.13,32,3.13,0
220,2020-04-14 23:25:10,RU,Saskylakh,71.92,114.08,-1.89,91,14.18,93
221,2020-04-14 23:32:42,PH,Tarusan,8.65,117.51,82.53,66,7.07,3
222,2020-04-14 23:32:42,RU,Okhotsk,59.38,143.3,28.49,89,9.44,11
223,2020-04-14 23:32:42,NO,Storsteinnes,69.24,19.23,33.8,92,14.99,90
224,2020-04-14 23:30:00,IN,Dwārka,22.24,68.97,80.44,75,19.24,60
225,2020-04-14 23:32:42,MM,Sittwe,20.15,92.9,74.16,87,4.32,0
226,2020-04-14 23:24:38,NZ,Ahipara,-35.17,173.17,62.31,65,16.44,72
227,2020-04-14 23:32:42,GQ,Mbini,1.57,9.61,80.6,100,4.7,40
228,2020-04-14 23:32:42,BR,Tamandaré,-8.76,-35.1,80.51,73,6.44,94
229,2020-04-14 23:24:27,AO,Mossamedes,-15.2,12.15,74.34,70,5.35,2
230,2020-04-14 23:32:42,PF,Tiarei,-17.53,-149.33,87.8,66,8.05,43
231,2020-04-14 23:32:43,RU,Krasnosel'kup,65.7,82.47,20.53,96,9.66,68
232,2020-04-14 23:29:07,IR,Mashhad,36.3,59.61,39.2,100,1.88,90
233,2020-04-14 23:32:43,RU,Strezhevoy,60.73,77.59,37.4,51,8.95,99
234,2020-04-14 23:32:43,MY,Malacca,2.2,102.24,78.8,83,3.36,20
235,2020-04-14 23:32:43,PL,Gniezno,52.53,17.58,37.99,55,6.93,0
236,2020-04-14 23:26:14,SY,Abu Kamal,34.45,40.92,63.5,29,3.24,0
237,2020-04-14 23:32:43,FR,Arrondissement de Saint-Denis,48.92,2.33,46.99,56,9.17,0
238,2020-04-14 23:26:02,IL,Kiryat Gat,31.61,34.76,64.4,82,2.24,75
239,2020-04-14 23:25:45,ID,Tual,-5.67,132.75,82.71,75,5.39,100
240,2020-04-14 23:32:43,US,Missoula,47.02,-113.8,51.01,34,20.8,90
241,2020-04-14 23:21:36,BR,Caravelas,-17.71,-39.25,77.23,84,2.57,9
242,2020-04-14 23:32:43,TM,Daşoguz,41.84,59.97,42.8,56,6.93,0
243,2020-04-14 23:32:43,CN,Yining,29.04,114.56,61.27,63,2.01,1
244,2020-04-14 23:32:43,MV,Dhidhdhoo,6.88,73.1,84.96,64,4.23,52
245,2020-04-14 23:32:43,RU,Ol'ga,43.74,135.29,40.33,70,9.13,40
246,2020-04-14 23:32:43,TR,Kumluca,36.37,30.29,59.32,49,5.26,70
247,2020-04-14 23:32:43,NZ,Whakatane,-37.96,176.99,62.01,62,7.0,13
248,2020-04-14 23:30:07,SD,Kutum,14.2,24.67,61.74,18,8.34,63
249,2020-04-14 23:32:43,PH,San Policarpo,12.18,125.51,82.74,69,6.17,1
250,2020-04-14 23:27:54,AR,Necochea,-38.55,-58.74,57.0,70,10.0,0
251,2020-04-14 23:32:43,RU,Batagay,67.63,134.63,13.69,93,3.74,100
252,2020-04-14 23:32:43,RU,Novikovo,51.15,37.89,43.18,85,14.34,100
253,2020-04-14 23:32:43,PK,Gwadar,25.12,62.33,80.15,66,10.63,0
254,2020-04-14 23:25:30,CA,Pangnirtung,66.15,-65.71,12.2,72,4.97,20
255,2020-04-14 23:32:43,GN,Conakry,9.54,-13.68,81.16,75,7.36,89
256,2020-04-14 23:29:37,IN,Leh,34.17,77.58,36.7,18,3.71,93
257,2020-04-14 23:32:44,NL,Grootegast,53.21,6.27,41.0,86,3.36,89
258,2020-04-14 23:25:20,CA,Prince Rupert,54.32,-130.32,46.4,93,2.24,90
259,2020-04-14 23:32:44,BD,Chhāgalnāiya,23.03,91.51,73.87,95,5.84,19
260,2020-04-14 23:32:44,GB,Boddam,57.47,-1.78,45.0,65,5.82,99
261,2020-04-14 23:32:44,DK,Thyborøn,56.7,8.21,44.01,86,1.99,100
262,2020-04-14 23:32:44,UA,Lokachi,50.74,24.65,34.25,78,10.85,25
263,2020-04-14 23:20:23,NZ,Kaitangata,-46.28,169.85,53.01,71,5.99,83
264,2020-04-14 23:32:44,AU,Whyalla,-33.03,137.58,71.6,22,10.29,83
265,2020-04-14 23:29:26,SB,Buala,-8.14,159.59,85.6,73,7.29,46
266,2020-04-14 23:29:51,AU,Karratha,-20.74,116.85,83.32,67,9.42,15
267,2020-04-14 23:21:21,GL,Nanortalik,60.14,-45.24,28.98,93,2.8,38
268,2020-04-14 23:32:44,NO,Øksfjord,70.24,22.35,33.8,69,11.41,75
269,2020-04-14 23:32:44,IT,Naples,40.83,14.25,55.99,66,9.17,69
270,2020-04-14 23:29:30,GB,Truro,50.27,-5.05,48.0,80,5.82,0
271,2020-04-14 23:25:48,US,College,64.86,-147.8,48.2,39,5.82,90
272,2020-04-14 23:32:44,JP,Kaminokawa,36.43,139.92,53.01,42,1.12,20
273,2020-04-14 23:32:44,KZ,Zharkent,44.16,80.0,56.88,46,11.16,100
274,2020-04-14 23:32:44,CA,Inuvik,68.35,-133.72,35.6,69,5.82,90
275,2020-04-14 23:32:44,MY,Kapit,2.02,112.93,78.26,89,1.1,32
276,2020-04-14 23:28:15,MG,Sambava,-14.27,50.17,74.8,84,7.14,55
277,2020-04-14 23:32:44,AF,Dawlatabad,36.41,64.91,50.09,64,1.88,81
278,2020-04-14 23:32:44,ZW,Hwange,-18.37,26.5,69.37,52,0.85,0
279,2020-04-14 23:27:46,BS,Marsh Harbour,26.54,-77.06,76.8,86,13.89,99
280,2020-04-14 23:32:44,BR,Coruripe,-10.13,-36.18,78.93,72,7.96,75
281,2020-04-14 23:32:45,RU,Novobirilyussy,56.95,90.67,40.21,78,0.38,93
282,2020-04-14 23:32:45,IR,Sabzawār,36.21,57.68,47.61,52,6.26,74
283,2020-04-14 23:32:45,PH,Simbahan,6.3,120.58,81.81,69,1.95,11
284,2020-04-14 23:25:42,CA,Norman Wells,65.28,-126.83,35.6,64,20.8,75
285,2020-04-14 23:32:45,NP,Banepā,27.63,85.52,60.8,93,2.24,75
286,2020-04-14 23:32:45,BR,Rio Negro,-26.11,-49.8,56.59,60,3.49,21
287,2020-04-14 23:32:45,RU,Begunitsy,59.59,29.32,32.0,97,4.47,75
288,2020-04-14 23:32:45,SN,Kédougou,12.56,-12.17,84.83,48,4.34,94
289,2020-04-14 23:29:42,AU,Flinders,-34.58,150.86,72.0,46,11.41,52
290,2020-04-14 23:32:45,CA,Shelburne,44.08,-80.2,37.99,59,12.75,20
291,2020-04-14 23:25:11,BR,Belmonte,-15.86,-38.88,75.2,94,5.82,75
292,2020-04-14 23:29:35,MX,Acapulco de Juárez,16.86,-99.89,80.6,78,12.75,5
293,2020-04-14 23:32:45,PE,Pimentel,-6.84,-79.93,73.56,76,10.69,5
294,2020-04-14 23:32:45,MX,Concepción del Oro,24.63,-101.42,74.95,6,11.05,60
295,2020-04-14 23:32:45,ES,Marbella,36.52,-4.89,62.6,93,8.05,75
296,2020-04-14 23:32:45,MX,Tamasopo,21.93,-99.48,73.26,39,10.76,51
297,2020-04-14 23:32:45,OM,Nizwá,22.93,57.53,75.81,40,0.98,74
298,2020-04-14 23:29:33,AU,Geraldton,-28.77,114.6,62.6,77,10.29,75
299,2020-04-14 23:25:07,AU,Port Lincoln,-34.73,135.87,72.34,31,17.9,100
300,2020-04-14 23:32:45,ZA,Mmabatho,-25.85,25.63,55.4,66,4.7,2
301,2020-04-14 23:32:45,ML,Taoudenni,22.68,-3.98,72.59,62,20.92,100
302,2020-04-14 23:32:46,ES,Felanitx,39.47,3.15,59.0,93,2.24,75
303,2020-04-14 23:25:09,SJ,Longyearbyen,78.22,15.64,30.2,74,27.51,75
304,2020-04-14 23:32:46,GE,Lagodekhi,41.83,46.28,46.4,70,9.17,6
305,2020-04-14 23:32:46,PK,Loralai,30.37,68.6,62.92,30,8.34,0
306,2020-04-14 23:25:28,ID,Manggar,-2.88,108.27,81.39,79,3.13,14
307,2020-04-14 23:32:46,AR,Salta,-24.79,-65.41,60.8,76,4.7,100
308,2020-04-14 23:32:46,US,Madera,37.17,-119.83,80.6,41,6.93,1
309,2020-04-14 23:20:48,MR,Nouadhibou,20.93,-17.03,64.4,82,13.87,0
310,2020-04-14 23:32:46,GB,Liverpool,53.41,-2.98,44.6,75,3.36,45
311,2020-04-14 23:32:46,LR,Buchanan,5.88,-10.05,78.8,94,5.1,20
312,2020-04-14 23:32:46,IT,Bose,45.46,8.01,54.0,62,9.17,86
313,2020-04-14 23:32:46,US,Callaway,30.15,-85.57,75.99,83,4.25,90
314,2020-04-14 23:29:55,AU,Katherine,-14.47,132.27,77.0,69,8.05,55
315,2020-04-14 23:32:46,AU,Collie,-33.37,116.15,60.01,67,7.11,10
316,2020-04-14 23:32:46,FR,Challans,46.84,-1.87,50.0,68,10.29,0
317,2020-04-14 23:32:46,SE,Kiruna,67.86,20.23,26.6,73,5.82,90
318,2020-04-14 23:24:56,JP,Katsuura,35.13,140.3,61.0,53,3.36,7
319,2020-04-14 23:32:46,RU,Arzgir,45.37,44.22,46.54,63,9.69,81
320,2020-04-14 23:25:37,LY,Nālūt,30.33,10.85,78.6,25,8.97,100
321,2020-04-14 23:25:38,GM,Nioro,13.35,-15.75,79.93,28,8.28,91
322,2020-04-14 23:32:47,ID,Banjar,-8.19,114.97,80.6,100,2.24,20
323,2020-04-14 23:32:47,RU,Chara,56.91,118.26,30.29,69,1.43,34
324,2020-04-14 23:29:51,PT,Praia da Vitória,38.73,-27.07,51.8,87,25.01,75
325,2020-04-14 23:32:47,RU,Klyuchi,52.27,79.17,45.61,85,11.97,87
326,2020-04-14 23:25:51,CL,Coquimbo,-29.95,-71.34,59.0,82,6.93,90
327,2020-04-14 23:32:47,VN,Hoi An,15.88,108.33,73.4,88,1.12,40
328,2020-04-14 23:32:47,GH,Cape Coast,5.11,-1.25,82.08,84,6.96,38
329,2020-04-14 23:32:47,NO,Tjøme,59.11,10.39,46.99,56,11.41,100
330,2020-04-14 23:25:04,IN,Port Blair,11.67,92.75,82.98,72,4.61,100
331,2020-04-14 23:25:57,MX,Cabo San Lucas,22.89,-109.91,81.0,33,3.36,5
332,2020-04-14 23:32:47,PH,Estrella,15.75,121.03,81.43,63,2.98,25
333,2020-04-14 23:25:57,AU,Hervey Bay,-25.3,152.85,81.0,64,10.29,1
334,2020-04-14 23:32:47,CA,Botwood,49.15,-55.35,42.8,93,13.87,75
335,2020-04-14 23:29:43,SA,Makkah al Mukarramah,21.43,39.83,65.17,26,4.81,0
336,2020-04-14 23:32:47,RO,Poiana Stampei,47.32,25.13,16.0,82,1.01,67
337,2020-04-14 23:32:47,TZ,Liwale,-9.77,37.93,68.83,85,2.24,99
338,2020-04-14 23:32:47,AI,The Valley,18.22,-63.06,81.0,74,12.75,40
339,2020-04-14 23:30:11,US,Bud,39.45,-86.18,45.0,33,13.87,40
340,2020-04-14 23:25:32,MU,Bambous Virieux,-20.34,57.76,77.0,88,19.46,75
341,2020-04-14 23:29:30,CL,Valdivia,-39.81,-73.25,53.6,87,2.24,100
342,2020-04-14 23:32:47,LY,Hūn,29.13,15.95,86.09,13,13.29,99
343,2020-04-14 23:32:47,GL,Maniitsoq,65.42,-52.9,25.41,90,11.36,87
344,2020-04-14 23:32:48,SO,Kismayo,-0.36,42.55,83.08,79,6.69,97
345,2020-04-14 23:31:49,US,Santa Barbara,34.42,-119.7,75.2,60,8.05,20
346,2020-04-14 23:31:49,US,Brentwood,40.78,-73.25,54.0,60,9.17,75
347,2020-04-14 23:32:48,GY,Bartica,6.4,-58.62,78.8,78,9.17,20
348,2020-04-14 23:21:48,RU,Bilibino,68.05,166.44,13.03,83,0.51,65
349,2020-04-14 23:25:46,PK,Ormara,25.21,64.64,79.74,64,8.9,0
350,2020-04-14 23:25:06,CA,Halifax,44.65,-63.57,55.0,66,6.93,75
351,2020-04-14 23:32:48,ZM,Zambezi,-13.54,23.1,65.62,65,2.95,32
352,2020-04-14 23:32:48,BR,Altamira,-3.2,-52.21,69.3,95,2.53,100
353,2020-04-14 23:25:46,IN,Kattivākkam,13.22,80.32,82.99,88,8.16,40
354,2020-04-14 23:27:50,CA,Terrace,54.52,-128.6,55.4,62,4.7,75
355,2020-04-14 23:32:48,RU,Chebenki,51.93,55.71,41.0,60,8.95,96
356,2020-04-14 23:25:12,US,York,40.13,-77.0,52.0,46,8.05,75
357,2020-04-14 23:32:48,RU,Novy Urengoy,66.08,76.63,23.7,98,9.01,98
358,2020-04-14 23:29:21,JP,Naze,28.37,129.48,62.6,77,2.24,75
359,2020-04-14 23:20:41,AR,Mar del Plata,-38.0,-57.56,60.01,67,14.99,40
360,2020-04-14 23:32:48,BR,Lins,-21.68,-49.74,67.44,84,2.48,88
361,2020-04-14 23:30:26,US,Ocean City,39.28,-74.57,55.0,53,6.93,40
362,2020-04-14 23:25:57,CA,High Level,58.52,-117.14,44.6,42,8.05,75
363,2020-04-14 23:32:48,KY,Bodden Town,19.28,-81.25,86.0,74,4.7,20
364,2020-04-14 23:32:48,KZ,Boralday,43.36,76.86,50.0,93,6.71,90
365,2020-04-14 23:25:31,AU,Mackay,-21.15,149.2,77.0,78,14.99,75
366,2020-04-14 23:32:48,UZ,Termez,37.22,67.28,55.4,87,25.28,90
367,2020-04-14 23:32:49,RU,Belyy Yar,53.6,91.39,35.6,100,2.06,90
368,2020-04-14 23:25:59,NU,Alofi,-19.06,-169.92,84.2,66,10.29,75
369,2020-04-14 23:32:49,KZ,Ayagoz,47.97,80.44,44.49,72,5.84,100
370,2020-04-14 23:32:49,SE,Vänersborg,58.38,12.32,43.0,75,12.75,100
371,2020-04-14 23:21:43,TR,Erzin,36.96,36.2,63.0,76,3.36,7
372,2020-04-14 23:28:20,US,Nome,64.5,-165.41,35.01,100,17.22,90
373,2020-04-14 23:26:09,NO,Andenes,69.31,16.12,33.01,75,9.17,90
374,2020-04-14 23:32:49,BR,Guiratinga,-16.35,-53.76,73.76,76,1.5,99
375,2020-04-14 23:32:49,PG,Aitape,-3.14,142.35,83.28,73,2.86,96
376,2020-04-14 23:32:49,UA,Zaozyornoye,45.16,33.28,49.68,90,5.66,99
377,2020-04-14 23:32:49,ZM,Mwense,-10.38,28.7,67.55,70,1.1,92
378,2020-04-14 23:32:49,SO,Oodweyne,9.41,45.06,75.96,49,8.14,36
379,2020-04-14 23:32:50,MX,Camargo,27.67,-105.17,84.22,7,3.18,9
380,2020-04-14 23:32:50,CM,Bétaré Oya,5.6,14.08,71.56,63,1.66,48
381,2020-04-14 23:32:50,ZM,Mwinilunga,-11.74,24.43,62.53,64,1.86,57
382,2020-04-14 23:32:50,IN,Kota,25.18,75.83,84.97,22,7.43,88
383,2020-04-14 23:22:40,AU,Ballina,-28.87,153.57,71.01,82,5.82,5
384,2020-04-14 23:25:44,PH,Basco,20.45,121.97,72.81,77,11.3,85
385,2020-04-14 23:24:48,GL,Narsaq,60.92,-46.05,28.4,58,6.93,75
386,2020-04-14 23:24:45,NO,Berlevåg,70.86,29.09,37.72,84,12.82,100
387,2020-04-14 23:31:08,US,San Angelo,31.46,-100.44,55.4,47,11.41,1
388,2020-04-14 23:29:55,CL,Coyhaique,-45.58,-72.07,50.0,81,2.98,90
389,2020-04-14 23:21:32,JP,Hirara,24.8,125.28,64.4,72,3.36,75
390,2020-04-14 23:29:53,MG,Beloha,-25.17,45.05,75.74,67,7.14,0
391,2020-04-14 23:32:50,DO,Pedernales,18.04,-71.74,80.8,68,4.32,17
392,2020-04-14 23:32:50,PW,Kloulklubed,7.04,134.26,80.6,88,9.17,75
393,2020-04-14 23:21:08,ES,Los Llanos de Aridane,28.66,-17.92,66.2,72,3.36,10
394,2020-04-14 23:32:50,IN,Narasannapeta,18.42,84.05,76.93,88,6.08,0
395,2020-04-14 23:32:50,PT,Funchal,32.63,-16.9,60.8,55,8.05,20
396,2020-04-14 23:32:50,TG,Notsé,6.95,1.17,78.42,84,5.37,31
397,2020-04-14 23:32:50,CD,Mushie,-3.02,16.9,75.87,81,2.19,35
398,2020-04-14 23:25:12,GL,Nuuk,64.18,-51.72,24.8,73,4.7,53
399,2020-04-14 23:32:50,RU,Smolenskoye,52.3,85.08,39.61,77,2.77,0
400,2020-04-14 23:24:45,CN,Xichang,27.9,102.26,59.56,32,3.09,0
401,2020-04-14 23:32:50,MX,Panabá,21.28,-88.27,89.6,34,12.91,4
402,2020-04-14 23:32:50,RU,Chernyshevskiy,63.01,112.47,27.25,95,8.63,98
403,2020-04-14 23:21:39,MU,Grand Gaube,-20.01,57.66,77.0,88,19.46,75
404,2020-04-14 23:32:50,IN,Tiruvallur,13.15,79.92,82.99,88,5.14,40
405,2020-04-14 23:32:51,PK,Karachi,24.91,67.08,78.8,83,10.29,75
406,2020-04-14 23:25:40,CN,Yinchuan,38.47,106.27,57.99,5,3.0,61
407,2020-04-14 23:25:35,ID,Bambanglipuro,-7.95,110.28,79.7,78,3.58,61
408,2020-04-14 23:32:51,CA,Shediac,46.22,-64.54,48.2,31,12.75,75
409,2020-04-14 23:32:51,RU,Novovarshavka,54.17,74.69,37.27,81,7.74,45
410,2020-04-14 23:29:35,NZ,Dunedin,-45.87,170.5,50.0,64,18.99,86
411,2020-04-14 23:32:51,BI,Muramvya,-3.27,29.61,58.62,54,1.01,100
412,2020-04-14 23:32:51,AW,Oranjestad,12.52,-70.03,82.4,69,18.34,20
413,2020-04-14 23:25:39,CV,Mindelo,16.89,-24.98,71.6,73,19.46,75
414,2020-04-14 23:25:01,PE,Pisco,-13.7,-76.22,71.6,30,14.99,40
415,2020-04-14 23:32:51,AU,Broken Hill,-31.95,141.43,69.8,26,12.75,25
416,2020-04-14 23:32:51,MT,Marsaxlokk,35.84,14.54,61.0,93,13.87,20
417,2020-04-14 23:24:59,US,Pacific Grove,36.62,-121.92,78.01,52,6.93,1
418,2020-04-14 23:25:20,US,Fortuna,40.6,-124.16,71.6,58,18.34,1
419,2020-04-14 23:32:51,NA,Gobabis,-22.45,18.97,59.0,58,2.24,5
420,2020-04-14 23:32:51,CN,Linqiong,30.42,103.46,66.0,100,1.86,0
421,2020-04-14 23:26:06,PE,Sechura,-5.56,-80.82,76.77,69,11.86,27
422,2020-04-14 23:32:52,MM,Mawlamyine,16.49,97.63,76.46,81,4.65,81
423,2020-04-14 23:32:52,IN,Nānpāra,27.87,81.5,78.31,32,2.77,56
424,2020-04-14 23:22:48,US,Fairbanks,64.84,-147.72,48.2,39,9.17,20
425,2020-04-14 23:24:54,RU,Beringovskiy,63.05,179.32,26.58,97,11.45,100
426,2020-04-14 23:32:52,IQ,Hīt,33.64,42.83,66.25,28,7.0,51
427,2020-04-14 23:32:52,UA,Nemyriv,48.97,28.84,33.01,82,10.85,79
428,2020-04-14 23:32:52,SA,Najrān,17.49,44.13,71.6,64,0.6,40
429,2020-04-14 23:32:50,AU,Mount Isa,-20.73,139.5,84.2,37,4.7,62
430,2020-04-14 23:28:14,PT,Porto Santo,33.07,-16.34,60.8,67,18.34,40
431,2020-04-14 23:22:10,IN,Kavaratti,10.57,72.64,83.97,70,5.44,19
432,2020-04-14 23:20:52,AU,Alice Springs,-23.7,133.88,62.6,36,2.24,23
433,2020-04-14 23:24:49,RU,Lavrentiya,65.58,-171.0,28.4,98,11.21,100
434,2020-04-14 23:32:52,MT,Saint Lawrence,36.06,14.2,61.0,93,13.87,20
435,2020-04-14 23:32:52,CO,Pital,2.27,-75.8,71.11,58,0.09,69
436,2020-04-14 23:29:23,ES,Muros,42.78,-9.06,61.0,93,5.82,20
437,2020-04-14 23:32:52,CO,Padilla,3.22,-76.31,77.0,69,6.93,75
438,2020-04-14 23:32:52,SB,Tulagi,-9.1,160.15,87.8,66,3.36,40
439,2020-04-14 23:32:52,RU,Nevel'sk,46.67,141.86,30.2,92,6.71,75
440,2020-04-14 23:32:52,RU,Chumikan,54.72,135.31,38.8,70,8.66,0
441,2020-04-14 23:32:52,NG,Yaan,7.38,8.57,85.78,51,9.4,43
442,2020-04-14 23:27:04,US,Hamilton,39.18,-84.53,46.4,31,9.17,20
443,2020-04-14 23:32:52,BR,Rio Pardo de Minas,-15.61,-42.54,67.42,75,4.59,32
444,2020-04-14 23:32:53,RU,Khuzhir,53.19,107.34,34.3,69,2.28,71
445,2020-04-14 23:32:53,SN,Saint-Louis,16.33,-15.0,84.2,32,4.7,76
446,2020-04-14 23:29:58,NA,Henties Bay,-22.12,14.28,57.0,91,10.89,0
447,2020-04-14 23:31:25,AU,Emerald,-23.53,148.17,75.2,60,12.75,0
448,2020-04-14 23:29:56,BJ,Porto-Novo,6.5,2.6,82.92,79,10.04,18
449,2020-04-14 23:32:53,RU,Kolosovka,56.47,73.61,34.83,90,6.76,48
450,2020-04-14 23:25:28,RU,Kodinsk,58.69,99.18,38.86,75,1.99,20
451,2020-04-14 23:32:53,TD,Abéché,13.83,20.83,79.07,12,18.23,3
452,2020-04-14 23:32:53,AU,Bowen,-20.02,148.23,82.0,74,12.75,75
453,2020-04-14 23:21:10,VU,Isangel,-19.55,169.27,84.2,74,9.08,90
454,2020-04-14 23:25:43,RU,Sangar,63.92,127.47,30.27,97,13.0,100
455,2020-04-14 23:32:53,TZ,Mugumu,-1.85,34.7,61.93,65,2.17,100
456,2020-04-14 23:25:01,RU,Provideniya,64.38,-173.3,30.2,80,15.66,90
457,2020-04-14 23:32:53,SS,Raja,8.46,25.68,72.09,17,1.05,0
458,2020-04-14 23:32:53,KZ,Quryq,43.2,51.65,49.23,71,18.66,0
459,2020-04-14 23:32:53,US,Truth or Consequences,33.13,-107.25,68.0,13,13.87,40
460,2020-04-14 23:32:53,TJ,Vorukh,39.85,70.58,45.37,44,3.6,100
461,2020-04-14 23:23:51,LK,Hambantota,6.12,81.12,80.46,81,5.82,80
462,2020-04-14 23:32:53,RU,Yumaguzino,52.9,56.39,38.01,79,6.42,99
463,2020-04-14 23:32:53,BR,Tauá,-5.97,-40.3,71.37,82,2.93,95
464,2020-04-14 23:32:53,HN,Tela,15.78,-87.45,89.01,74,6.93,20
465,2020-04-14 23:32:54,RU,Ivangorod,59.37,28.22,32.63,94,8.59,74
466,2020-04-14 23:32:54,RU,Nyurba,63.28,118.33,28.02,92,9.89,94
467,2020-04-14 23:30:05,CN,Yatou,37.15,122.38,52.29,74,5.97,96
468,2020-04-14 23:32:54,MG,Antalaha,-14.9,50.28,76.78,80,9.35,35
469,2020-04-14 23:32:54,CN,Tongliao,43.61,122.27,53.1,35,13.02,100
470,2020-04-14 23:21:51,MZ,Inhambane,-23.86,35.38,76.44,86,11.59,3
471,2020-04-14 23:32:54,BR,Mazagão,-0.12,-51.29,75.2,100,2.24,90
472,2020-04-14 23:32:54,BR,São José da Coroa Grande,-8.9,-35.15,80.17,73,6.44,94
473,2020-04-14 23:32:54,US,Altamont,42.21,-121.74,64.4,18,17.22,1
474,2020-04-14 23:32:54,BR,Chapada dos Guimarães,-15.46,-55.75,75.2,83,5.82,75
475,2020-04-14 23:25:19,CN,Yumen,40.28,97.2,55.58,30,5.64,12
476,2020-04-14 23:32:54,US,Lahaina,20.88,-156.68,78.8,74,3.36,40
477,2020-04-14 23:31:15,US,Helena,46.59,-112.04,48.2,34,17.22,90
478,2020-04-14 23:29:59,BR,Salinópolis,-0.61,-47.36,74.68,87,4.14,100
479,2020-04-14 23:22:43,YE,Aden,12.78,45.04,81.79,80,13.4,44
480,2020-04-14 23:32:54,RU,Imeni Poliny Osipenko,52.42,136.49,42.49,58,14.09,2
481,2020-04-14 23:32:54,RU,Mikhaylov,54.23,39.02,36.99,88,14.54,100
482,2020-04-14 23:32:54,MX,Altar,30.7,-111.82,84.0,13,7.0,0
483,2020-04-14 23:32:54,ES,Onda,39.97,-0.25,60.8,93,2.24,75
484,2020-04-14 23:24:51,PG,Daru,-9.08,143.21,84.38,73,11.34,88
485,2020-04-14 23:24:27,AU,Byron Bay,-28.65,153.62,75.2,78,5.82,9
486,2020-04-14 23:30:12,RU,Borogontsy,62.67,131.17,29.8,96,7.94,100
487,2020-04-14 23:32:55,CL,Diego de Almagro,-26.37,-70.05,52.93,60,0.47,71
488,2020-04-14 23:25:08,BR,Rio Grande,-32.03,-52.1,60.01,81,4.0,100
489,2020-04-14 23:24:48,ZA,Saldanha,-33.01,17.94,59.0,82,4.7,15
490,2020-04-14 23:28:18,RU,Kirensk,57.79,108.11,38.05,74,1.79,1
491,2020-04-14 23:32:55,RU,Savinka,50.08,47.1,45.01,71,13.89,78
492,2020-04-14 23:23:57,CN,Wanning,18.8,110.4,71.22,72,2.93,95
493,2020-04-14 23:32:55,SN,Dakar,14.69,-17.44,73.4,78,6.93,94
494,2020-04-14 23:32:55,CA,Neepawa,50.23,-99.47,28.4,42,11.41,75
495,2020-04-14 23:32:55,AM,Karchaghbyur,40.17,45.58,31.93,37,5.64,2
496,2020-04-14 23:25:15,MN,Khovd,48.01,91.64,41.76,53,2.3,99
497,2020-04-14 23:32:56,CN,Jiayuguan City,39.82,98.3,55.63,22,6.64,29
498,2020-04-14 23:30:55,US,Grand Forks,47.93,-97.03,26.6,53,6.93,75
499,2020-04-14 23:25:25,AR,Presidencia Roque Sáenz Peña,-26.79,-60.44,58.35,50,3.98,19
500,2020-04-14 23:26:12,RU,Egvekinot,66.32,-179.17,20.88,93,9.46,100
501,2020-04-14 23:32:56,ID,Payo,-3.75,103.64,77.0,89,1.12,98
502,2020-04-14 23:29:05,AR,Viedma,-40.81,-63.0,56.37,63,9.35,0
503,2020-04-14 23:24:22,IS,Hofn,64.25,-15.21,38.05,73,16.42,99
504,2020-04-14 23:32:56,UA,Karlivka,49.46,35.13,38.59,75,15.03,100
505,2020-04-14 23:32:56,GL,Paamiut,61.99,-49.67,28.26,93,10.22,92
506,2020-04-14 23:32:56,AU,Port Keats,-14.25,129.55,81.61,54,6.02,52
507,2020-04-14 23:32:56,GB,Northam,51.03,-4.22,42.01,93,3.36,0
508,2020-04-14 23:32:56,RU,Shalinskoye,55.72,93.76,39.0,63,1.99,12
509,2020-04-14 23:32:56,US,Pineville,31.32,-92.43,64.4,48,11.41,1
510,2020-04-14 23:32:57,CN,Yuancheng,36.65,107.79,58.53,18,3.15,53
511,2020-04-14 23:32:57,AO,Luanda,-8.84,13.23,78.8,88,5.32,75
512,2020-04-14 23:32:57,CO,Tarazá,7.58,-75.4,77.79,80,1.95,26
513,2020-04-14 23:32:57,BR,Areia Branca,-4.96,-37.14,79.59,80,10.87,69
514,2020-04-14 23:24:15,HK,Hong Kong,22.29,114.16,70.0,72,3.36,20
515,2020-04-14 23:32:57,UA,Myrhorod,49.97,33.61,38.57,74,10.22,100
516,2020-04-14 23:32:57,GR,Lárdos,36.09,28.02,62.01,67,3.36,41
517,2020-04-14 23:32:57,CO,Inírida,3.87,-67.92,80.28,71,0.83,63
518,2020-04-14 23:32:57,RU,Kez,57.9,53.72,31.62,90,2.53,5
519,2020-04-14 23:25:35,US,Makakilo City,21.35,-158.09,82.4,69,5.82,40
520,2020-04-14 23:32:57,AU,Batemans Bay,-35.72,150.18,73.0,64,4.92,75
521,2020-04-14 23:32:57,CF,Birao,10.28,22.79,76.77,15,7.58,29
522,2020-04-14 23:28:57,NO,Røros,62.57,11.38,35.6,93,11.41,90
523,2020-04-14 23:32:41,SB,Auki,-8.77,160.7,85.62,68,3.74,34
524,2020-04-14 23:32:57,IT,Tortolì,39.93,9.66,59.0,82,21.92,40
525,2020-04-14 23:32:57,MU,Cap Malheureux,-19.98,57.61,77.0,88,19.46,75
526,2020-04-14 23:30:57,MR,Nouakchott,18.09,-15.98,68.0,77,13.87,53
527,2020-04-14 23:32:57,IT,Nola,40.92,14.53,55.99,66,9.17,73
528,2020-04-14 23:32:58,UA,Peremyshlyany,49.67,24.56,30.2,86,9.84,0
529,2020-04-14 23:28:50,MX,Guacamayas,18.02,-102.22,80.2,59,6.44,100
530,2020-04-14 23:32:58,IN,Bāsugaon,26.47,90.4,76.24,46,0.58,4
531,2020-04-14 23:32:58,ID,Paciran,-6.88,112.38,80.74,82,3.69,49
532,2020-04-14 23:25:54,PG,Lorengau,-2.02,147.27,82.78,72,3.36,98
533,2020-04-14 23:25:46,US,Sitka,57.05,-135.33,48.2,87,3.36,90
534,2020-04-14 23:32:58,PT,Alcains,39.92,-7.46,57.99,80,4.0,96
535,2020-04-14 23:25:15,NZ,Tuatapere,-46.13,167.68,46.99,95,7.0,100
536,2020-04-14 23:32:58,GL,Sisimiut,66.94,-53.67,22.95,93,6.89,98
537,2020-04-14 23:26:08,BR,Porto Velho,-8.76,-63.9,75.2,94,4.7,75
538,2020-04-14 23:32:58,KZ,Derzhavīnsk,51.1,66.32,36.36,73,15.93,39
539,2020-04-14 23:32:38,NL,The Hague,52.08,4.3,43.0,93,1.12,62
540,2020-04-14 23:30:02,US,Key Largo,25.09,-80.45,84.2,74,8.05,1
541,2020-04-14 23:32:58,CL,Mulchén,-37.72,-72.23,73.4,31,3.36,75
542,2020-04-14 23:29:42,PG,Kieta,-6.22,155.63,86.61,63,1.86,95
543,2020-04-14 23:32:58,MX,Etchojoa,26.92,-109.63,82.4,28,12.75,75
544,2020-04-14 23:32:58,CA,Slave Lake,55.28,-114.77,35.6,93,6.93,90
545,2020-04-14 23:29:43,RU,Severodvinsk,64.56,39.83,35.6,80,2.98,75
546,2020-04-14 23:32:58,MA,Nador,35.17,-2.93,62.6,88,3.13,70
547,2020-04-14 23:32:59,GH,Takoradze,4.88,-1.76,81.77,84,6.46,34
548,2020-04-14 23:26:29,CA,Fort Nelson,58.81,-122.7,44.6,68,12.75,75
549,2020-04-14 23:29:47,PT,Lata,40.16,-8.33,64.0,77,5.82,40
550,2020-04-14 23:32:59,CA,Sept-Îles,50.2,-66.38,41.0,41,17.22,20
551,2020-04-14 23:25:22,CA,Aklavik,68.22,-135.01,35.6,69,6.93,75
552,2020-04-14 23:32:59,RU,Severnoye,56.35,78.36,36.3,83,6.67,100
553,2020-04-14 23:32:52,RU,Verkhnevilyuysk,63.45,120.32,27.1,92,9.71,93
554,2020-04-14 23:32:59,IT,Anzio,41.49,12.62,53.01,75,6.93,12
555,2020-04-14 23:32:59,BR,Cianorte,-23.66,-52.6,60.17,64,8.48,3
556,2020-04-14 23:32:59,IR,Iranshahr,27.2,60.68,76.42,33,2.46,15
557,2020-04-14 23:32:59,KZ,Kachīry,53.07,76.1,40.12,81,8.3,73
558,2020-04-14 23:21:49,SO,Bosaso,11.28,49.18,83.12,69,4.41,37
559,2020-04-14 23:32:59,TD,Doba,8.65,16.85,86.85,31,3.06,67
560,2020-04-14 23:32:59,CA,Terrace Bay,48.78,-87.1,25.0,89,9.28,99
561,2020-04-14 23:32:59,GT,Ocós,14.51,-92.19,87.8,70,8.05,75
562,2020-04-14 23:32:59,RU,Turukhansk,65.82,87.98,28.71,98,5.37,99
563,2020-04-14 23:25:36,CA,Hay River,60.82,-115.8,32.0,91,5.82,75
564,2020-04-14 23:32:59,ZM,Sinazongwe,-17.26,27.46,75.49,50,1.5,4
565,2020-04-14 23:30:34,SV,Acajutla,13.59,-89.83,84.78,66,4.5,86
566,2020-04-14 23:30:35,US,Porterville,36.07,-119.02,78.8,36,5.82,1
567,2020-04-14 23:29:43,US,North Bend,43.41,-124.22,55.4,71,19.46,1
568,2020-04-14 23:25:41,CA,Smithers,54.78,-127.17,53.6,62,17.22,40
569,2020-04-14 23:33:00,DE,Gardelegen,52.53,11.4,41.0,70,1.99,76
570,2020-04-14 23:33:00,BR,Jaciara,-15.97,-54.97,73.65,81,3.83,100
571,2020-04-14 23:21:38,MX,San Quintín,30.48,-115.95,64.11,71,16.6,1
572,2020-04-14 23:33:00,US,Estelle,29.85,-90.11,73.4,60,11.41,40
573,2020-04-14 23:25:41,AR,San Miguel de Tucumán,-26.82,-65.22,68.0,68,5.82,93
574,2020-04-14 23:29:22,IN,Deoli,25.75,75.38,84.22,22,8.16,95
575,2020-04-14 23:29:23,CA,Hearst,49.68,-83.67,19.08,94,4.83,100
576,2020-04-14 23:29:37,KZ,Emba,48.83,58.14,39.06,64,9.53,31
577,2020-04-14 23:33:00,ID,Luwuk,-0.95,122.79,83.26,66,1.92,93
578,2020-04-14 23:25:03,CL,Tocopilla,-22.09,-70.2,66.63,54,1.45,22
579,2020-04-14 23:29:54,JM,Morant Bay,17.88,-76.41,82.99,78,23.04,20
580,2020-04-14 23:33:00,UA,Poroshkovo,48.67,22.75,28.0,75,2.82,6
581,2020-04-14 23:29:10,FI,Muhos,64.81,25.99,27.0,92,5.82,1
582,2020-04-14 23:33:00,RU,Odesskoye,54.21,72.97,34.83,82,7.9,0
583,2020-04-14 23:28:51,PL,Bielsko-Biala,49.82,19.05,37.0,75,5.82,48
